{
  "name": "Parking Lots",
  "modes": ["drive"],
  "note": "Generated by scripts/fetch_car_parking.py from the City of Grand Rapids Visitor Parking map. Garage vs lot follows ramp-style facilities vs other types; the Parking_Facilities layer uses the same filter as the live web map. Meters, micromobility (see fetch_lime_parking.py), and bicycle parking (see fetch_bike_parking.py) are not fetched from this map. Surface lots in this file are limited to within 1.75 mi of downtown (42.96333, -85.66806), matching bicycle rack coverage.",
  "items": [
    {
      "location": {
        "latitude": 42.974095,
        "longitude": -85.670505
      },
      "name": "601 Ottawa Lot",
      "address": "601 Ottawa Ave NE",
      "pricing": {
        "hourlyRate": "Weekends and Weekdays after 7pm"
      },
      "availability": "80 spaces; DASH: Circulator"
    },
    {
      "location": {
        "latitude": 42.961194,
        "longitude": -85.671457
      },
      "name": "Area 2 Lot",
      "address": "131 Oakes St SW",
      "pricing": {
        "daytime": "$16.00",
        "events": "$16.00-25.00"
      },
      "availability": "146 spaces; DASH: Circulator, Silver Line"
    },
    {
      "location": {
        "latitude": 42.961773,
        "longitude": -85.670616
      },
      "name": "Area 3 Lot",
      "address": "45 Ionia Ave SW",
      "pricing": {
        "daytime": "$12.00",
        "events": "$15.00-25.00"
      },
      "availability": "65 spaces; DASH: Circulator"
    },
    {
      "location": {
        "latitude": 42.959072,
        "longitude": -85.671995
      },
      "name": "Area 6A Lot",
      "address": "170 Cherry St SW",
      "pricing": {
        "daytime": "$10.00",
        "events": "$12.00-20.00"
      },
      "availability": "191 spaces; DASH: Circulator, Silver Line"
    },
    {
      "location": {
        "latitude": 42.969179,
        "longitude": -85.679591
      },
      "name": "Area 7 Lot",
      "address": "301 Mt Vernon Ave NW",
      "pricing": {
        "daytime": "$4.00",
        "events": "$8.00-9.00"
      },
      "availability": "474 spaces; Monday - Friday after 5 pm; Weekends; DASH: Circulator, Work"
    },
    {
      "location": {
        "latitude": 42.969938,
        "longitude": -85.681874
      },
      "name": "Area 8 Lot",
      "address": "325 Winter Ave NW",
      "pricing": {
        "daytime": "$5.00",
        "events": "$6.00-7.00"
      },
      "availability": "110 spaces; Monday - Friday after 5 pm; Weekends; DASH: Circulator, Work"
    },
    {
      "location": {
        "latitude": 42.967487,
        "longitude": -85.682207
      },
      "name": "Area 9 Lot",
      "address": "250 Seward Ave NW",
      "pricing": {
        "daytime": "$3.00",
        "events": "$6.00-7.00"
      },
      "availability": "485 spaces; Monday - Friday after 5 pm; Weekends; DASH: Circulator, Work"
    },
    {
      "location": {
        "latitude": 42.955117,
        "longitude": -85.641244
      },
      "name": "Barth Lot",
      "address": "412 Barth Ave SE, 1110 Wealthy",
      "availability": "42 spaces; DASH: "
    },
    {
      "location": {
        "latitude": 42.96323,
        "longitude": -85.644331
      },
      "name": "East Fulton Hub Lot",
      "address": "14 Diamond Ave NE",
      "availability": "8 spaces; DASH: "
    },
    {
      "location": {
        "latitude": 42.955202,
        "longitude": -85.651148
      },
      "name": "Henry Charles Parking Lot",
      "address": "412 Henry Ave SE",
      "availability": "26 spaces; DASH: "
    },
    {
      "location": {
        "latitude": 42.964778,
        "longitude": -85.665352
      },
      "name": "Library Lot",
      "address": "111 Library St NE",
      "pricing": {
        "daytime": "$25.00",
        "events": "$15.00",
        "rate": "$2.00"
      },
      "availability": "118 spaces; DASH: Circulator, Silver Line"
    },
    {
      "location": {
        "latitude": 42.941501,
        "longitude": -85.65749
      },
      "name": "Madison Square Lot",
      "address": "436 Umatilla St SE",
      "availability": "22 spaces; DASH: "
    },
    {
      "location": {
        "latitude": 42.95464,
        "longitude": -85.668903
      },
      "name": "McConnell Ionia Lot",
      "address": "36 McConnell St SW",
      "pricing": {
        "daytime": "$10.00",
        "evening": "$51.00",
        "events": "$8.00-9.00",
        "rate": "$1.00 Per Hour",
        "hourlyRate": "$1.00"
      },
      "availability": "300 spaces; DASH: Circulator"
    },
    {
      "location": {
        "latitude": 42.969335,
        "longitude": -85.67852
      },
      "name": "Scribner Lot",
      "address": "309 Scribner Ave NW",
      "pricing": {
        "daytime": "$5.00",
        "events": "$6.00-10.00"
      },
      "availability": "165 spaces; Monday - Friday after 5 pm; Weekends; DASH: Circulator, Work"
    },
    {
      "location": {
        "latitude": 42.985425,
        "longitude": -85.677834
      },
      "name": "Turner/Braan's Lot",
      "address": "1209 Turner Ave NW",
      "availability": "38 spaces; DASH: "
    },
    {
      "location": {
        "latitude": 42.955854,
        "longitude": -85.650878
      },
      "name": "Wealthy Charles Lot",
      "address": "723 Wealthy St SE",
      "availability": "26 spaces; DASH: "
    },
    {
      "location": {
        "latitude": 42.963694,
        "longitude": -85.687092
      },
      "name": "West Fulton Lot",
      "address": "747 Fulton St W",
      "availability": "30 spaces; DASH: "
    },
    {
      "location": {
        "latitude": 42.984968,
        "longitude": -85.684592
      },
      "name": "West Leonard Lot",
      "address": "652 Leonard St NW",
      "availability": "18 spaces; DASH: "
    }
  ]
}
